{"type":"FeatureCollection", "features": [
{"type":"Feature","geometry":{"type":"Point","coordinates":[135.5008364,34.7048316,0]},"properties":{"name":"梅田エスト店","styleUrl":"#icon-1603-097138-nodesc","icon-scale":1,"icon":"images/icon-1.png"}},
{"type":"Feature","geometry":{"type":"Point","coordinates":[135.5010952,34.7063366,0]},"properties":{"name":"TSUTAYA 梅田 MeRISE店","styleUrl":"#icon-1603-097138-nodesc","icon-scale":1,"icon":"images/icon-1.png"}},
{"type":"Feature","geometry":{"type":"Point","coordinates":[135.4969272,34.7048595,0]},"properties":{"name":"LINKS UMEDA 2階店","styleUrl":"#icon-1603-097138-nodesc","icon-scale":1,"icon":"images/icon-1.png"}},
{"type":"Feature","geometry":{"type":"Point","coordinates":[135.4964599,34.7016791,0]},"properties":{"name":"大丸梅田店","styleUrl":"#icon-1603-097138-nodesc","icon-scale":1,"icon":"images/icon-1.png"}},
{"type":"Feature","geometry":{"type":"Point","coordinates":[135.493261,34.702892,0]},"properties":{"name":"うめきたグリーンプレイス店","styleUrl":"#icon-1603-097138-nodesc","icon-scale":1,"icon":"images/icon-1.png"}},
{"type":"Feature","geometry":{"type":"Point","coordinates":[135.4948114,34.7015551,0]},"properties":{"name":"エキマルシェ大阪店","styleUrl":"#icon-1603-097138-nodesc","icon-scale":1,"icon":"images/icon-1.png"}},
{"type":"Feature","geometry":{"type":"Point","coordinates":[135.5018079,34.7019325,0]},"properties":{"name":"ホワイティうめだ店","styleUrl":"#icon-1603-097138-nodesc","icon-scale":1,"icon":"images/icon-1.png"}},
{"type":"Feature","geometry":{"type":"Point","coordinates":[135.4981396,34.7006611,0]},"properties":{"name":"梅田イーマ店","styleUrl":"#icon-1603-097138-nodesc","icon-scale":1,"icon":"images/icon-1.png"}},
{"type":"Feature","geometry":{"type":"Point","coordinates":[135.4943626,34.7053655,0]},"properties":{"name":"グランフロント大阪北館1階店","styleUrl":"#icon-1603-097138-nodesc","icon-scale":1,"icon":"images/icon-1.png"}},
{"type":"Feature","geometry":{"type":"Point","coordinates":[135.4985323,34.7083761,0]},"properties":{"name":"ちゃやまちアプローズタワー店","styleUrl":"#icon-1603-097138-nodesc","icon-scale":1,"icon":"images/icon-1.png"}},
{"type":"Feature","geometry":{"type":"Point","coordinates":[135.4949254,34.7045973,0]},"properties":{"name":"グランフロント大阪南館6階店","styleUrl":"#icon-1603-097138-nodesc","icon-scale":1,"icon":"images/icon-1.png"}},
{"type":"Feature","geometry":{"type":"Point","coordinates":[135.4985514,34.7030253,0]},"properties":{"name":"阪急うめだ本店9階店","styleUrl":"#icon-1603-097138-nodesc","icon-scale":1,"icon":"images/icon-1.png"}},
{"type":"Feature","geometry":{"type":"Point","coordinates":[135.4964599,34.7016791,0]},"properties":{"name":"大丸梅田店","styleUrl":"#icon-1603-097138-nodesc","icon-scale":1,"icon":"images/icon-1.png"}},
{"type":"Feature","geometry":{"type":"Point","coordinates":[135.4981396,34.7006611,0]},"properties":{"name":"梅田イーマ店","styleUrl":"#icon-1603-097138-nodesc","icon-scale":1,"icon":"images/icon-1.png"}},
{"type":"Feature","geometry":{"type":"Point","coordinates":[135.4959365,34.6981336,0]},"properties":{"name":"桜橋プラザビル店","styleUrl":"#icon-1603-097138-nodesc","icon-scale":1,"icon":"images/icon-1.png"}},
{"type":"Feature","geometry":{"type":"Point","coordinates":[135.4977896,34.701093,0]},"properties":{"name":"阪神梅田本店 地下2階店","styleUrl":"#icon-1603-097138-nodesc","icon-scale":1,"icon":"images/icon-1.png"}},
{"type":"Feature","geometry":{"type":"Point","coordinates":[135.4915368,34.6986975,0]},"properties":{"name":"大阪ガーデンシティ店","styleUrl":"#icon-1603-097138-nodesc","icon-scale":1,"icon":"images/icon-1.png"}},
{"type":"Feature","geometry":{"type":"Point","coordinates":[135.5018079,34.7019325,0]},"properties":{"name":"ホワイティうめだ店","styleUrl":"#icon-1603-097138-nodesc","icon-scale":1,"icon":"images/icon-1.png"}},
{"type":"Feature","geometry":{"type":"Point","coordinates":[135.4985514,34.7030253,0]},"properties":{"name":"阪急うめだ本店9階店","styleUrl":"#icon-1603-097138-nodesc","icon-scale":1,"icon":"images/icon-1.png"}},
{"type":"Feature","geometry":{"type":"Point","coordinates":[135.4948114,34.7015551,0]},"properties":{"name":"エキマルシェ大阪店","styleUrl":"#icon-1603-097138-nodesc","icon-scale":1,"icon":"images/icon-1.png"}},
{"type":"Feature","geometry":{"type":"Point","coordinates":[135.4969272,34.7048595,0]},"properties":{"name":"LINKS UMEDA 2階店","styleUrl":"#icon-1603-097138-nodesc","icon-scale":1,"icon":"images/icon-1.png"}},
{"type":"Feature","geometry":{"type":"Point","coordinates":[135.493261,34.702892,0]},"properties":{"name":"うめきたグリーンプレイス店","styleUrl":"#icon-1603-097138-nodesc","icon-scale":1,"icon":"images/icon-1.png"}},
{"type":"Feature","geometry":{"type":"Point","coordinates":[135.4962546,34.7041898,0]},"properties":{"name":"LINKS UMEDA 8階店","styleUrl":"#icon-1603-097138-nodesc","icon-scale":1,"icon":"images/icon-1.png"}},
{"type":"Feature","geometry":{"type":"Point","coordinates":[135.493103,34.70255,0]},"properties":{"name":"TSUTAYA BOOKSTORE イノゲート大阪店","styleUrl":"#icon-1603-097138-nodesc","icon-scale":1,"icon":"images/icon-1.png"}},
{"type":"Feature","geometry":{"type":"Point","coordinates":[135.4956585,34.7032433,0]},"properties":{"name":"LUCUA 2階店","styleUrl":"#icon-1603-097138-nodesc","icon-scale":1,"icon":"images/icon-1.png"}},
{"type":"Feature","geometry":{"type":"Point","coordinates":[135.494401,34.7026487,0]},"properties":{"name":"LUCUA 1100 2階 グランマルシェ店","styleUrl":"#icon-1603-097138-nodesc","icon-scale":1,"icon":"images/icon-1.png"}},
{"type":"Feature","geometry":{"type":"Point","coordinates":[135.495372,34.7029925,0]},"properties":{"name":"LUCUA 1100 2階 アトリウムガーデン店","styleUrl":"#icon-1603-097138-nodesc","icon-scale":1,"icon":"images/icon-1.png"}},
{"type":"Feature","geometry":{"type":"Point","coordinates":[135.4952921,34.7029954,0]},"properties":{"name":"LUCUA osaka 地下2階店","styleUrl":"#icon-1603-097138-nodesc","icon-scale":1,"icon":"images/icon-1.png"}},
{"type":"Feature","geometry":{"type":"Point","coordinates":[135.4953236,34.7028866,0]},"properties":{"name":"LUCUA 9階店","styleUrl":"#icon-1603-097138-nodesc","icon-scale":1,"icon":"images/icon-1.png"}},
{"type":"Feature","geometry":{"type":"Point","coordinates":[135.4943626,34.7053655,0]},"properties":{"name":"グランフロント大阪北館1階店","styleUrl":"#icon-1603-097138-nodesc","icon-scale":1,"icon":"images/icon-1.png"}},
{"type":"Feature","geometry":{"type":"Point","coordinates":[135.4956585,34.7032433,0]},"properties":{"name":"LUCUA 2階店","styleUrl":"#icon-1603-097138-nodesc","icon-scale":1,"icon":"images/icon-1.png"}},
{"type":"Feature","geometry":{"type":"Point","coordinates":[135.496179,34.703132,0]},"properties":{"name":"JR大阪駅北店","styleUrl":"#icon-1603-097138-nodesc","icon-scale":1,"icon":"images/icon-1.png"}},
{"type":"Feature","geometry":{"type":"Point","coordinates":[135.4977896,34.701093,0]},"properties":{"name":"阪神梅田本店 9階店","styleUrl":"#icon-1603-097138-nodesc","icon-scale":1,"icon":"images/icon-1.png"}},
{"type":"Feature","geometry":{"type":"Point","coordinates":[135.5007956,34.7041119,0]},"properties":{"name":"梅田HEP FIVE3階店","styleUrl":"#icon-1603-097138-nodesc","icon-scale":1,"icon":"images/icon-1.png"}},
{"type":"Feature","geometry":{"type":"Point","coordinates":[135.494421,34.700615,0]},"properties":{"name":"ＫＩＴＴＥ大阪店","styleUrl":"#icon-1603-097138-nodesc","icon-scale":1,"icon":"images/icon-1.png"}},
{"type":"Feature","geometry":{"type":"Point","coordinates":[135.4990003,34.7033393,0]},"properties":{"name":"阪急サン広場地下通り店","styleUrl":"#icon-1603-097138-nodesc","icon-scale":1,"icon":"images/icon-1.png"}},
{"type":"Feature","geometry":{"type":"Point","coordinates":[135.499854,34.7037797,0]},"properties":{"name":"梅田HEP FIVE7階店","styleUrl":"#icon-1603-097138-nodesc","icon-scale":1,"icon":"images/icon-1.png"}},
{"type":"Feature","geometry":{"type":"Point","coordinates":[135.4968839,34.7047859,0]},"properties":{"name":"LINKS UMEDA 地下1階店","styleUrl":"#icon-1603-097138-nodesc","icon-scale":1,"icon":"images/icon-1.png"}}
]}